[
  {
    "slug": "bmc-mumbai",
    "name": "Brihanmumbai Municipal Corporation",
    "short_name": "BMC",
    "city": "Mumbai",
    "state_code": "MH",
    "municipality_type": "municipal_corporation",
    "ward_count": 227,
    "population": 12442373,
    "helpline_phone": "1916",
    "centroid_lat": 19.076,
    "centroid_lon": 72.8777
  },
  {
    "slug": "pmc-pune",
    "name": "Pune Municipal Corporation",
    "short_name": "PMC",
    "city": "Pune",
    "state_code": "MH",
    "municipality_type": "municipal_corporation",
    "ward_count": 41,
    "population": 7166000,
    "helpline_phone": "020-25501555",
    "centroid_lat": 18.5204,
    "centroid_lon": 73.8567
  },
  {
    "slug": "pcmc-pimpri-chinchwad",
    "name": "Pimpri-Chinchwad Municipal Corporation",
    "short_name": "PCMC",
    "city": "Pimpri-Chinchwad",
    "state_code": "MH",
    "municipality_type": "municipal_corporation",
    "ward_count": 32,
    "population": 2120000,
    "helpline_phone": null,
    "centroid_lat": 18.6279,
    "centroid_lon": 73.8009
  },
  {
    "slug": "nmc-nagpur",
    "name": "Nagpur Municipal Corporation",
    "short_name": "NMC",
    "city": "Nagpur",
    "state_code": "MH",
    "municipality_type": "municipal_corporation",
    "ward_count": 38,
    "population": 2893000,
    "helpline_phone": "0712-2567636",
    "centroid_lat": 21.1458,
    "centroid_lon": 79.0882
  },
  {
    "slug": "tmc-thane",
    "name": "Thane Municipal Corporation",
    "short_name": "TMC",
    "city": "Thane",
    "state_code": "MH",
    "municipality_type": "municipal_corporation",
    "ward_count": 18,
    "population": 1890000,
    "helpline_phone": "022-25334041",
    "centroid_lat": 19.2183,
    "centroid_lon": 72.9781
  },
  {
    "slug": "nmc-nashik",
    "name": "Nashik Municipal Corporation",
    "short_name": "NMC-NK",
    "city": "Nashik",
    "state_code": "MH",
    "municipality_type": "municipal_corporation",
    "ward_count": 6,
    "population": 1486053,
    "helpline_phone": null,
    "centroid_lat": 19.9975,
    "centroid_lon": 73.7898
  },
  {
    "slug": "kdmc-kalyan-dombivli",
    "name": "Kalyan-Dombivli Municipal Corporation",
    "short_name": "KDMC",
    "city": "Kalyan-Dombivli",
    "state_code": "MH",
    "municipality_type": "municipal_corporation",
    "ward_count": null,
    "population": 1246381,
    "helpline_phone": null,
    "centroid_lat": 19.2403,
    "centroid_lon": 73.1305
  },
  {
    "slug": "vmc-vasai-virar",
    "name": "Vasai Virar City Municipal Corporation",
    "short_name": "VVCMC",
    "city": "Vasai-Virar",
    "state_code": "MH",
    "municipality_type": "municipal_corporation",
    "ward_count": null,
    "population": 1222000,
    "helpline_phone": null,
    "centroid_lat": 19.3919,
    "centroid_lon": 72.8397
  },
  {
    "slug": "amc-aurangabad",
    "name": "Chhatrapati Sambhajinagar Municipal Corporation",
    "short_name": "CSMC",
    "city": "Chhatrapati Sambhajinagar",
    "state_code": "MH",
    "municipality_type": "municipal_corporation",
    "ward_count": null,
    "population": 1175000,
    "helpline_phone": null,
    "centroid_lat": 19.8762,
    "centroid_lon": 75.3433
  },
  {
    "slug": "smc-solapur",
    "name": "Solapur Municipal Corporation",
    "short_name": "SMC",
    "city": "Solapur",
    "state_code": "MH",
    "municipality_type": "municipal_corporation",
    "ward_count": null,
    "population": 951558,
    "helpline_phone": null,
    "centroid_lat": 17.6599,
    "centroid_lon": 75.9064
  },
  {
    "slug": "mmc-malegaon",
    "name": "Malegaon Municipal Corporation",
    "short_name": "MgMC",
    "city": "Malegaon",
    "state_code": "MH",
    "municipality_type": "municipal_corporation",
    "ward_count": null,
    "population": 535811,
    "helpline_phone": null,
    "centroid_lat": 20.5579,
    "centroid_lon": 74.5089
  },
  {
    "slug": "nanded-waghala",
    "name": "Nanded-Waghala City Municipal Corporation",
    "short_name": "NWMC",
    "city": "Nanded",
    "state_code": "MH",
    "municipality_type": "municipal_corporation",
    "ward_count": null,
    "population": 550564,
    "helpline_phone": null,
    "centroid_lat": 19.1383,
    "centroid_lon": 77.321
  },
  {
    "slug": "smc-sangli-miraj",
    "name": "Sangli-Miraj-Kupwad Municipal Corporation",
    "short_name": "SMKMC",
    "city": "Sangli",
    "state_code": "MH",
    "municipality_type": "municipal_corporation",
    "ward_count": null,
    "population": 502793,
    "helpline_phone": null,
    "centroid_lat": 16.8524,
    "centroid_lon": 74.5815
  },
  {
    "slug": "kmc-kolhapur",
    "name": "Kolhapur Municipal Corporation",
    "short_name": "KoMC",
    "city": "Kolhapur",
    "state_code": "MH",
    "municipality_type": "municipal_corporation",
    "ward_count": null,
    "population": 549283,
    "helpline_phone": null,
    "centroid_lat": 16.705,
    "centroid_lon": 74.2433
  },
  {
    "slug": "amc-akola",
    "name": "Akola Municipal Corporation",
    "short_name": "AkMC",
    "city": "Akola",
    "state_code": "MH",
    "municipality_type": "municipal_corporation",
    "ward_count": null,
    "population": 427300,
    "helpline_phone": null,
    "centroid_lat": 20.7002,
    "centroid_lon": 77.0082
  },
  {
    "slug": "lmc-latur",
    "name": "Latur Municipal Corporation",
    "short_name": "LtMC",
    "city": "Latur",
    "state_code": "MH",
    "municipality_type": "municipal_corporation",
    "ward_count": null,
    "population": 382754,
    "helpline_phone": null,
    "centroid_lat": 18.3981,
    "centroid_lon": 76.5604
  },
  {
    "slug": "cmc-chandrapur",
    "name": "Chandrapur Municipal Corporation",
    "short_name": "CpMC",
    "city": "Chandrapur",
    "state_code": "MH",
    "municipality_type": "municipal_corporation",
    "ward_count": null,
    "population": 321710,
    "helpline_phone": null,
    "centroid_lat": 19.9615,
    "centroid_lon": 79.2961
  },
  {
    "slug": "pmc-parbhani",
    "name": "Parbhani Municipal Corporation",
    "short_name": "PbMC",
    "city": "Parbhani",
    "state_code": "MH",
    "municipality_type": "municipal_corporation",
    "ward_count": null,
    "population": 307134,
    "helpline_phone": null,
    "centroid_lat": 19.2615,
    "centroid_lon": 76.7764
  },
  {
    "slug": "gcc-chennai",
    "name": "Greater Chennai Corporation",
    "short_name": "GCC",
    "city": "Chennai",
    "state_code": "TN",
    "municipality_type": "municipal_corporation",
    "ward_count": 200,
    "population": 7088000,
    "helpline_phone": "1913",
    "centroid_lat": 13.0827,
    "centroid_lon": 80.2707
  },
  {
    "slug": "cmc-coimbatore",
    "name": "Coimbatore City Municipal Corporation",
    "short_name": "CCMC",
    "city": "Coimbatore",
    "state_code": "TN",
    "municipality_type": "municipal_corporation",
    "ward_count": 100,
    "population": 2151466,
    "helpline_phone": "0422-2390100",
    "centroid_lat": 11.0168,
    "centroid_lon": 76.9558
  },
  {
    "slug": "mmc-madurai",
    "name": "Madurai City Municipal Corporation",
    "short_name": "MMC",
    "city": "Madurai",
    "state_code": "TN",
    "municipality_type": "municipal_corporation",
    "ward_count": 100,
    "population": 1465000,
    "helpline_phone": null,
    "centroid_lat": 9.9252,
    "centroid_lon": 78.1198
  },
  {
    "slug": "smc-salem",
    "name": "Salem City Municipal Corporation",
    "short_name": "SLMC",
    "city": "Salem",
    "state_code": "TN",
    "municipality_type": "municipal_corporation",
    "ward_count": 60,
    "population": 918000,
    "helpline_phone": null,
    "centroid_lat": 11.6643,
    "centroid_lon": 78.146
  },
  {
    "slug": "tchy-tiruchirappalli",
    "name": "Tiruchirappalli City Municipal Corporation",
    "short_name": "TCC",
    "city": "Tiruchirappalli",
    "state_code": "TN",
    "municipality_type": "municipal_corporation",
    "ward_count": 65,
    "population": 1022000,
    "helpline_phone": null,
    "centroid_lat": 10.7905,
    "centroid_lon": 78.7047
  },
  {
    "slug": "tnvl-tirunelveli",
    "name": "Tirunelveli City Municipal Corporation",
    "short_name": "TNMC",
    "city": "Tirunelveli",
    "state_code": "TN",
    "municipality_type": "municipal_corporation",
    "ward_count": 55,
    "population": 498000,
    "helpline_phone": null,
    "centroid_lat": 8.7139,
    "centroid_lon": 77.7567
  },
  {
    "slug": "vlr-vellore",
    "name": "Vellore City Municipal Corporation",
    "short_name": "VCC",
    "city": "Vellore",
    "state_code": "TN",
    "municipality_type": "municipal_corporation",
    "ward_count": 60,
    "population": 504000,
    "helpline_phone": null,
    "centroid_lat": 12.9165,
    "centroid_lon": 79.1325
  },
  {
    "slug": "erode-mc",
    "name": "Erode City Municipal Corporation",
    "short_name": "EMC",
    "city": "Erode",
    "state_code": "TN",
    "municipality_type": "municipal_corporation",
    "ward_count": 60,
    "population": 521000,
    "helpline_phone": null,
    "centroid_lat": 11.341,
    "centroid_lon": 77.7172
  },
  {
    "slug": "thoothukudi-mc",
    "name": "Thoothukudi Corporation",
    "short_name": "TKMC",
    "city": "Thoothukudi",
    "state_code": "TN",
    "municipality_type": "municipal_corporation",
    "ward_count": 50,
    "population": 410000,
    "helpline_phone": null,
    "centroid_lat": 8.7642,
    "centroid_lon": 78.1348
  },
  {
    "slug": "thanjavur-mc",
    "name": "Thanjavur City Municipal Corporation",
    "short_name": "TJMC",
    "city": "Thanjavur",
    "state_code": "TN",
    "municipality_type": "municipal_corporation",
    "ward_count": 50,
    "population": 368000,
    "helpline_phone": null,
    "centroid_lat": 10.787,
    "centroid_lon": 79.1378
  },
  {
    "slug": "dindigul-mc",
    "name": "Dindigul Corporation",
    "short_name": "DMC",
    "city": "Dindigul",
    "state_code": "TN",
    "municipality_type": "municipal_corporation",
    "ward_count": 42,
    "population": 280000,
    "helpline_phone": null,
    "centroid_lat": 10.3624,
    "centroid_lon": 77.9695
  },
  {
    "slug": "avadi-mc",
    "name": "Avadi Municipal Corporation",
    "short_name": "AMC",
    "city": "Avadi",
    "state_code": "TN",
    "municipality_type": "municipal_corporation",
    "ward_count": 48,
    "population": 345000,
    "helpline_phone": null,
    "centroid_lat": 13.1146,
    "centroid_lon": 80.1014
  },
  {
    "slug": "tambaram-mc",
    "name": "Tambaram Corporation",
    "short_name": "TMBC",
    "city": "Tambaram",
    "state_code": "TN",
    "municipality_type": "municipal_corporation",
    "ward_count": 60,
    "population": 400000,
    "helpline_phone": null,
    "centroid_lat": 12.9249,
    "centroid_lon": 80.1
  },
  {
    "slug": "tiruppur-mc",
    "name": "Tiruppur City Municipal Corporation",
    "short_name": "TPMC",
    "city": "Tiruppur",
    "state_code": "TN",
    "municipality_type": "municipal_corporation",
    "ward_count": 60,
    "population": 877000,
    "helpline_phone": null,
    "centroid_lat": 11.1085,
    "centroid_lon": 77.3411
  },
  {
    "slug": "nagercoil-mc",
    "name": "Nagercoil Corporation",
    "short_name": "NgMC",
    "city": "Nagercoil",
    "state_code": "TN",
    "municipality_type": "municipal_corporation",
    "ward_count": 52,
    "population": 250000,
    "helpline_phone": null,
    "centroid_lat": 8.1833,
    "centroid_lon": 77.4119
  },
  {
    "slug": "gvmc-visakhapatnam",
    "name": "Greater Visakhapatnam Municipal Corporation",
    "short_name": "GVMC",
    "city": "Visakhapatnam",
    "state_code": "AP",
    "municipality_type": "municipal_corporation",
    "ward_count": 98,
    "population": 2035922,
    "helpline_phone": "1800-425-4340",
    "centroid_lat": 17.6868,
    "centroid_lon": 83.2185
  },
  {
    "slug": "vmc-vijayawada",
    "name": "Vijayawada Municipal Corporation",
    "short_name": "VMC",
    "city": "Vijayawada",
    "state_code": "AP",
    "municipality_type": "municipal_corporation",
    "ward_count": 64,
    "population": 1491202,
    "helpline_phone": null,
    "centroid_lat": 16.5062,
    "centroid_lon": 80.648
  },
  {
    "slug": "gmc-guntur",
    "name": "Guntur Municipal Corporation",
    "short_name": "GMC",
    "city": "Guntur",
    "state_code": "AP",
    "municipality_type": "municipal_corporation",
    "ward_count": 57,
    "population": 743361,
    "helpline_phone": null,
    "centroid_lat": 16.3067,
    "centroid_lon": 80.4365
  },
  {
    "slug": "nmc-nellore",
    "name": "Nellore Municipal Corporation",
    "short_name": "NeMC",
    "city": "Nellore",
    "state_code": "AP",
    "municipality_type": "municipal_corporation",
    "ward_count": 50,
    "population": 558000,
    "helpline_phone": null,
    "centroid_lat": 14.4426,
    "centroid_lon": 79.9865
  },
  {
    "slug": "kmc-kurnool",
    "name": "Kurnool Municipal Corporation",
    "short_name": "KuMC",
    "city": "Kurnool",
    "state_code": "AP",
    "municipality_type": "municipal_corporation",
    "ward_count": 50,
    "population": 484327,
    "helpline_phone": null,
    "centroid_lat": 15.8281,
    "centroid_lon": 78.0373
  },
  {
    "slug": "rmc-rajahmundry",
    "name": "Rajahmundry Municipal Corporation",
    "short_name": "RMC",
    "city": "Rajahmundry",
    "state_code": "AP",
    "municipality_type": "municipal_corporation",
    "ward_count": 50,
    "population": 476000,
    "helpline_phone": null,
    "centroid_lat": 16.9891,
    "centroid_lon": 81.784
  },
  {
    "slug": "tmc-tirupati",
    "name": "Tirupati Municipal Corporation",
    "short_name": "TiMC",
    "city": "Tirupati",
    "state_code": "AP",
    "municipality_type": "municipal_corporation",
    "ward_count": 50,
    "population": 459000,
    "helpline_phone": null,
    "centroid_lat": 13.6288,
    "centroid_lon": 79.4192
  },
  {
    "slug": "kmc-kakinada",
    "name": "Kakinada Municipal Corporation",
    "short_name": "KkMC",
    "city": "Kakinada",
    "state_code": "AP",
    "municipality_type": "municipal_corporation",
    "ward_count": 50,
    "population": 384000,
    "helpline_phone": null,
    "centroid_lat": 16.9891,
    "centroid_lon": 82.2475
  },
  {
    "slug": "emc-eluru",
    "name": "Eluru Municipal Corporation",
    "short_name": "ElMC",
    "city": "Eluru",
    "state_code": "AP",
    "municipality_type": "municipal_corporation",
    "ward_count": null,
    "population": 287079,
    "helpline_phone": null,
    "centroid_lat": 16.7107,
    "centroid_lon": 81.0952
  },
  {
    "slug": "amc-anantapur",
    "name": "Anantapur Municipal Corporation",
    "short_name": "AnMC",
    "city": "Anantapur",
    "state_code": "AP",
    "municipality_type": "municipal_corporation",
    "ward_count": null,
    "population": 340613,
    "helpline_phone": null,
    "centroid_lat": 14.6819,
    "centroid_lon": 77.6006
  },
  {
    "slug": "kd-kadapa",
    "name": "Kadapa Municipal Corporation",
    "short_name": "KdMC",
    "city": "Kadapa",
    "state_code": "AP",
    "municipality_type": "municipal_corporation",
    "ward_count": null,
    "population": 344893,
    "helpline_phone": null,
    "centroid_lat": 14.4674,
    "centroid_lon": 78.8241
  },
  {
    "slug": "omc-ongole",
    "name": "Ongole Municipal Corporation",
    "short_name": "OMC",
    "city": "Ongole",
    "state_code": "AP",
    "municipality_type": "municipal_corporation",
    "ward_count": null,
    "population": 280000,
    "helpline_phone": null,
    "centroid_lat": 15.5057,
    "centroid_lon": 80.0499
  },
  {
    "slug": "smc-srikakulam",
    "name": "Srikakulam Municipal Corporation",
    "short_name": "SkMC",
    "city": "Srikakulam",
    "state_code": "AP",
    "municipality_type": "municipal_corporation",
    "ward_count": null,
    "population": 148000,
    "helpline_phone": null,
    "centroid_lat": 18.2949,
    "centroid_lon": 83.8938
  },
  {
    "slug": "vmc-vizianagaram",
    "name": "Vizianagaram Municipal Corporation",
    "short_name": "VzMC",
    "city": "Vizianagaram",
    "state_code": "AP",
    "municipality_type": "municipal_corporation",
    "ward_count": null,
    "population": 230000,
    "helpline_phone": null,
    "centroid_lat": 18.1067,
    "centroid_lon": 83.3956
  },
  {
    "slug": "pmc-proddatur",
    "name": "Proddatur Municipal Corporation",
    "short_name": "PdMC",
    "city": "Proddatur",
    "state_code": "AP",
    "municipality_type": "municipal_corporation",
    "ward_count": null,
    "population": 196000,
    "helpline_phone": null,
    "centroid_lat": 14.7502,
    "centroid_lon": 78.5482
  },
  {
    "slug": "cmc-chittoor",
    "name": "Chittoor Municipal Corporation",
    "short_name": "CtMC",
    "city": "Chittoor",
    "state_code": "AP",
    "municipality_type": "municipal_corporation",
    "ward_count": null,
    "population": 180000,
    "helpline_phone": null,
    "centroid_lat": 13.2172,
    "centroid_lon": 79.1003
  },
  {
    "slug": "bbmp-bengaluru",
    "name": "Bruhat Bengaluru Mahanagara Palike",
    "short_name": "BBMP",
    "city": "Bengaluru",
    "state_code": "KA",
    "municipality_type": "municipal_corporation",
    "ward_count": 243,
    "population": 12765000,
    "helpline_phone": "080-22221188",
    "centroid_lat": 12.9716,
    "centroid_lon": 77.5946
  },
  {
    "slug": "mcc-mysuru",
    "name": "Mysuru City Corporation",
    "short_name": "MCC",
    "city": "Mysuru",
    "state_code": "KA",
    "municipality_type": "municipal_corporation",
    "ward_count": 65,
    "population": 1014000,
    "helpline_phone": null,
    "centroid_lat": 12.2958,
    "centroid_lon": 76.6394
  },
  {
    "slug": "hmc-hubli-dharwad",
    "name": "Hubballi-Dharwad Municipal Corporation",
    "short_name": "HDMC",
    "city": "Hubli-Dharwad",
    "state_code": "KA",
    "municipality_type": "municipal_corporation",
    "ward_count": 82,
    "population": 1044000,
    "helpline_phone": null,
    "centroid_lat": 15.3647,
    "centroid_lon": 75.124
  },
  {
    "slug": "mnc-mangaluru",
    "name": "Mangaluru City Corporation",
    "short_name": "MnCC",
    "city": "Mangaluru",
    "state_code": "KA",
    "municipality_type": "municipal_corporation",
    "ward_count": 60,
    "population": 623841,
    "helpline_phone": null,
    "centroid_lat": 12.9141,
    "centroid_lon": 74.856
  },
  {
    "slug": "bgm-belagavi",
    "name": "Belagavi City Corporation",
    "short_name": "BCC",
    "city": "Belagavi",
    "state_code": "KA",
    "municipality_type": "municipal_corporation",
    "ward_count": 58,
    "population": 610189,
    "helpline_phone": null,
    "centroid_lat": 15.8497,
    "centroid_lon": 74.4977
  },
  {
    "slug": "kmc-kalaburagi",
    "name": "Kalaburagi City Corporation",
    "short_name": "KlCC",
    "city": "Kalaburagi",
    "state_code": "KA",
    "municipality_type": "municipal_corporation",
    "ward_count": null,
    "population": 543000,
    "helpline_phone": null,
    "centroid_lat": 17.329,
    "centroid_lon": 76.8343
  },
  {
    "slug": "dmc-davanagere",
    "name": "Davanagere City Corporation",
    "short_name": "DvCC",
    "city": "Davanagere",
    "state_code": "KA",
    "municipality_type": "municipal_corporation",
    "ward_count": null,
    "population": 435000,
    "helpline_phone": null,
    "centroid_lat": 14.4644,
    "centroid_lon": 75.9218
  },
  {
    "slug": "bmc-ballari",
    "name": "Ballari City Corporation",
    "short_name": "BlCC",
    "city": "Ballari",
    "state_code": "KA",
    "municipality_type": "municipal_corporation",
    "ward_count": null,
    "population": 410445,
    "helpline_phone": null,
    "centroid_lat": 15.1394,
    "centroid_lon": 76.9214
  },
  {
    "slug": "smc-shivamogga",
    "name": "Shivamogga City Corporation",
    "short_name": "SmCC",
    "city": "Shivamogga",
    "state_code": "KA",
    "municipality_type": "municipal_corporation",
    "ward_count": null,
    "population": 356377,
    "helpline_phone": null,
    "centroid_lat": 13.9299,
    "centroid_lon": 75.568
  },
  {
    "slug": "tmc-tumakuru",
    "name": "Tumakuru City Corporation",
    "short_name": "TmCC",
    "city": "Tumakuru",
    "state_code": "KA",
    "municipality_type": "municipal_corporation",
    "ward_count": null,
    "population": 302143,
    "helpline_phone": null,
    "centroid_lat": 13.3379,
    "centroid_lon": 77.117
  },
  {
    "slug": "ghmc-hyderabad",
    "name": "Greater Hyderabad Municipal Corporation",
    "short_name": "GHMC",
    "city": "Hyderabad",
    "state_code": "TS",
    "municipality_type": "municipal_corporation",
    "ward_count": 150,
    "population": 10534418,
    "helpline_phone": "040-21111111",
    "centroid_lat": 17.385,
    "centroid_lon": 78.4867
  },
  {
    "slug": "wmc-warangal",
    "name": "Greater Warangal Municipal Corporation",
    "short_name": "GWMC",
    "city": "Warangal",
    "state_code": "TS",
    "municipality_type": "municipal_corporation",
    "ward_count": 66,
    "population": 830000,
    "helpline_phone": null,
    "centroid_lat": 17.9784,
    "centroid_lon": 79.5941
  },
  {
    "slug": "kmc-karimnagar",
    "name": "Karimnagar Municipal Corporation",
    "short_name": "KrMC",
    "city": "Karimnagar",
    "state_code": "TS",
    "municipality_type": "municipal_corporation",
    "ward_count": null,
    "population": 297447,
    "helpline_phone": null,
    "centroid_lat": 18.4386,
    "centroid_lon": 79.1288
  },
  {
    "slug": "nmc-nizamabad",
    "name": "Nizamabad Municipal Corporation",
    "short_name": "NzMC",
    "city": "Nizamabad",
    "state_code": "TS",
    "municipality_type": "municipal_corporation",
    "ward_count": null,
    "population": 320000,
    "helpline_phone": null,
    "centroid_lat": 18.6725,
    "centroid_lon": 78.0941
  },
  {
    "slug": "kmc-khammam",
    "name": "Khammam Municipal Corporation",
    "short_name": "KhMC",
    "city": "Khammam",
    "state_code": "TS",
    "municipality_type": "municipal_corporation",
    "ward_count": null,
    "population": 262255,
    "helpline_phone": null,
    "centroid_lat": 17.2473,
    "centroid_lon": 80.1514
  },
  {
    "slug": "rmc-ramagundam",
    "name": "Ramagundam Municipal Corporation",
    "short_name": "RgMC",
    "city": "Ramagundam",
    "state_code": "TS",
    "municipality_type": "municipal_corporation",
    "ward_count": null,
    "population": 229000,
    "helpline_phone": null,
    "centroid_lat": 18.7551,
    "centroid_lon": 79.4745
  },
  {
    "slug": "mmc-mahbubnagar",
    "name": "Mahbubnagar Municipal Corporation",
    "short_name": "MbMC",
    "city": "Mahbubnagar",
    "state_code": "TS",
    "municipality_type": "municipal_corporation",
    "ward_count": null,
    "population": 217000,
    "helpline_phone": null,
    "centroid_lat": 16.7488,
    "centroid_lon": 77.9855
  },
  {
    "slug": "ndmc-new-delhi",
    "name": "New Delhi Municipal Council",
    "short_name": "NDMC",
    "city": "New Delhi",
    "state_code": "DL",
    "municipality_type": "municipal_corporation",
    "ward_count": 11,
    "population": 257803,
    "helpline_phone": "011-23362222",
    "centroid_lat": 28.6139,
    "centroid_lon": 77.209
  },
  {
    "slug": "mcd-delhi",
    "name": "Municipal Corporation of Delhi",
    "short_name": "MCD",
    "city": "Delhi",
    "state_code": "DL",
    "municipality_type": "municipal_corporation",
    "ward_count": 250,
    "population": 16787941,
    "helpline_phone": "011-23220022",
    "centroid_lat": 28.7041,
    "centroid_lon": 77.1025
  },
  {
    "slug": "kmc-kolkata",
    "name": "Kolkata Municipal Corporation",
    "short_name": "KMC",
    "city": "Kolkata",
    "state_code": "WB",
    "municipality_type": "municipal_corporation",
    "ward_count": 144,
    "population": 4496694,
    "helpline_phone": "1916",
    "centroid_lat": 22.5726,
    "centroid_lon": 88.3639
  },
  {
    "slug": "hmc-howrah",
    "name": "Howrah Municipal Corporation",
    "short_name": "HMC",
    "city": "Howrah",
    "state_code": "WB",
    "municipality_type": "municipal_corporation",
    "ward_count": 50,
    "population": 1072000,
    "helpline_phone": null,
    "centroid_lat": 22.5958,
    "centroid_lon": 88.2636
  },
  {
    "slug": "amc-asansol",
    "name": "Asansol Municipal Corporation",
    "short_name": "AsMC",
    "city": "Asansol",
    "state_code": "WB",
    "municipality_type": "municipal_corporation",
    "ward_count": 106,
    "population": 1244000,
    "helpline_phone": null,
    "centroid_lat": 23.6888,
    "centroid_lon": 86.9661
  },
  {
    "slug": "smc-siliguri",
    "name": "Siliguri Municipal Corporation",
    "short_name": "SgMC",
    "city": "Siliguri",
    "state_code": "WB",
    "municipality_type": "municipal_corporation",
    "ward_count": 47,
    "population": 513264,
    "helpline_phone": null,
    "centroid_lat": 26.7271,
    "centroid_lon": 88.3953
  },
  {
    "slug": "dmc-durgapur",
    "name": "Durgapur Municipal Corporation",
    "short_name": "DgMC",
    "city": "Durgapur",
    "state_code": "WB",
    "municipality_type": "municipal_corporation",
    "ward_count": 43,
    "population": 581409,
    "helpline_phone": null,
    "centroid_lat": 23.5204,
    "centroid_lon": 87.3119
  },
  {
    "slug": "chmc-chandannagar",
    "name": "Chandannagar Municipal Corporation",
    "short_name": "CnMC",
    "city": "Chandannagar",
    "state_code": "WB",
    "municipality_type": "municipal_corporation",
    "ward_count": 33,
    "population": 166867,
    "helpline_phone": null,
    "centroid_lat": 22.8671,
    "centroid_lon": 88.3674
  },
  {
    "slug": "bmc-bidhannagar",
    "name": "Bidhannagar Municipal Corporation",
    "short_name": "BdMC",
    "city": "Bidhannagar",
    "state_code": "WB",
    "municipality_type": "municipal_corporation",
    "ward_count": 41,
    "population": 450000,
    "helpline_phone": null,
    "centroid_lat": 22.5958,
    "centroid_lon": 88.4245
  },
  {
    "slug": "lmc-lucknow",
    "name": "Lucknow Municipal Corporation",
    "short_name": "LMC",
    "city": "Lucknow",
    "state_code": "UP",
    "municipality_type": "municipal_corporation",
    "ward_count": 110,
    "population": 3382000,
    "helpline_phone": null,
    "centroid_lat": 26.8467,
    "centroid_lon": 80.9462
  },
  {
    "slug": "knn-kanpur",
    "name": "Kanpur Nagar Nigam",
    "short_name": "KNN",
    "city": "Kanpur",
    "state_code": "UP",
    "municipality_type": "municipal_corporation",
    "ward_count": 110,
    "population": 2920000,
    "helpline_phone": null,
    "centroid_lat": 26.4499,
    "centroid_lon": 80.3319
  },
  {
    "slug": "ann-agra",
    "name": "Agra Nagar Nigam",
    "short_name": "ANN",
    "city": "Agra",
    "state_code": "UP",
    "municipality_type": "municipal_corporation",
    "ward_count": 100,
    "population": 1760000,
    "helpline_phone": null,
    "centroid_lat": 27.1767,
    "centroid_lon": 78.0081
  },
  {
    "slug": "vnn-varanasi",
    "name": "Varanasi Nagar Nigam",
    "short_name": "VNN",
    "city": "Varanasi",
    "state_code": "UP",
    "municipality_type": "municipal_corporation",
    "ward_count": 90,
    "population": 1432000,
    "helpline_phone": null,
    "centroid_lat": 25.3176,
    "centroid_lon": 82.9739
  },
  {
    "slug": "gnn-ghaziabad",
    "name": "Ghaziabad Nagar Nigam",
    "short_name": "GNN",
    "city": "Ghaziabad",
    "state_code": "UP",
    "municipality_type": "municipal_corporation",
    "ward_count": null,
    "population": 1729000,
    "helpline_phone": null,
    "centroid_lat": 28.6692,
    "centroid_lon": 77.4538
  },
  {
    "slug": "mnn-meerut",
    "name": "Meerut Nagar Nigam",
    "short_name": "MNN",
    "city": "Meerut",
    "state_code": "UP",
    "municipality_type": "municipal_corporation",
    "ward_count": null,
    "population": 1420000,
    "helpline_phone": null,
    "centroid_lat": 28.9845,
    "centroid_lon": 77.7064
  },
  {
    "slug": "pnn-prayagraj",
    "name": "Prayagraj Nagar Nigam",
    "short_name": "PNN",
    "city": "Prayagraj",
    "state_code": "UP",
    "municipality_type": "municipal_corporation",
    "ward_count": null,
    "population": 1168000,
    "helpline_phone": null,
    "centroid_lat": 25.4358,
    "centroid_lon": 81.8463
  },
  {
    "slug": "bnn-bareilly",
    "name": "Bareilly Nagar Nigam",
    "short_name": "BNN",
    "city": "Bareilly",
    "state_code": "UP",
    "municipality_type": "municipal_corporation",
    "ward_count": null,
    "population": 903668,
    "helpline_phone": null,
    "centroid_lat": 28.367,
    "centroid_lon": 79.4304
  },
  {
    "slug": "monn-moradabad",
    "name": "Moradabad Nagar Nigam",
    "short_name": "MoNN",
    "city": "Moradabad",
    "state_code": "UP",
    "municipality_type": "municipal_corporation",
    "ward_count": null,
    "population": 887871,
    "helpline_phone": null,
    "centroid_lat": 28.8386,
    "centroid_lon": 78.7733
  },
  {
    "slug": "alnn-aligarh",
    "name": "Aligarh Nagar Nigam",
    "short_name": "AlNN",
    "city": "Aligarh",
    "state_code": "UP",
    "municipality_type": "municipal_corporation",
    "ward_count": null,
    "population": 872575,
    "helpline_phone": null,
    "centroid_lat": 27.8974,
    "centroid_lon": 78.088
  },
  {
    "slug": "gknn-gorakhpur",
    "name": "Gorakhpur Nagar Nigam",
    "short_name": "GkNN",
    "city": "Gorakhpur",
    "state_code": "UP",
    "municipality_type": "municipal_corporation",
    "ward_count": null,
    "population": 673446,
    "helpline_phone": null,
    "centroid_lat": 26.7606,
    "centroid_lon": 83.3732
  },
  {
    "slug": "amc-ahmedabad",
    "name": "Ahmedabad Municipal Corporation",
    "short_name": "AMC",
    "city": "Ahmedabad",
    "state_code": "GJ",
    "municipality_type": "municipal_corporation",
    "ward_count": 48,
    "population": 7681000,
    "helpline_phone": "155303",
    "centroid_lat": 23.0225,
    "centroid_lon": 72.5714
  },
  {
    "slug": "smc-surat",
    "name": "Surat Municipal Corporation",
    "short_name": "SmMC",
    "city": "Surat",
    "state_code": "GJ",
    "municipality_type": "municipal_corporation",
    "ward_count": 29,
    "population": 6082000,
    "helpline_phone": "0261-2423751",
    "centroid_lat": 21.1702,
    "centroid_lon": 72.8311
  },
  {
    "slug": "vmc-vadodara",
    "name": "Vadodara Municipal Corporation",
    "short_name": "VdMC",
    "city": "Vadodara",
    "state_code": "GJ",
    "municipality_type": "municipal_corporation",
    "ward_count": 19,
    "population": 2065000,
    "helpline_phone": null,
    "centroid_lat": 22.3072,
    "centroid_lon": 73.1812
  },
  {
    "slug": "rmc-rajkot",
    "name": "Rajkot Municipal Corporation",
    "short_name": "RjMC",
    "city": "Rajkot",
    "state_code": "GJ",
    "municipality_type": "municipal_corporation",
    "ward_count": null,
    "population": 1390000,
    "helpline_phone": null,
    "centroid_lat": 22.3039,
    "centroid_lon": 70.8022
  },
  {
    "slug": "bmc-bhavnagar",
    "name": "Bhavnagar Municipal Corporation",
    "short_name": "BvMC",
    "city": "Bhavnagar",
    "state_code": "GJ",
    "municipality_type": "municipal_corporation",
    "ward_count": null,
    "population": 605882,
    "helpline_phone": null,
    "centroid_lat": 21.7645,
    "centroid_lon": 72.1519
  },
  {
    "slug": "jmc-jamnagar",
    "name": "Jamnagar Municipal Corporation",
    "short_name": "JnMC",
    "city": "Jamnagar",
    "state_code": "GJ",
    "municipality_type": "municipal_corporation",
    "ward_count": null,
    "population": 600943,
    "helpline_phone": null,
    "centroid_lat": 22.4707,
    "centroid_lon": 70.0577
  },
  {
    "slug": "gmc-gandhinagar",
    "name": "Gandhinagar Municipal Corporation",
    "short_name": "GnMC",
    "city": "Gandhinagar",
    "state_code": "GJ",
    "municipality_type": "municipal_corporation",
    "ward_count": null,
    "population": 306880,
    "helpline_phone": null,
    "centroid_lat": 23.2156,
    "centroid_lon": 72.6369
  },
  {
    "slug": "jmc-junagadh",
    "name": "Junagadh Municipal Corporation",
    "short_name": "JuMC",
    "city": "Junagadh",
    "state_code": "GJ",
    "municipality_type": "municipal_corporation",
    "ward_count": null,
    "population": 320250,
    "helpline_phone": null,
    "centroid_lat": 21.5222,
    "centroid_lon": 70.4579
  },
  {
    "slug": "jmc-jaipur",
    "name": "Jaipur Municipal Corporation",
    "short_name": "JMC",
    "city": "Jaipur",
    "state_code": "RJ",
    "municipality_type": "municipal_corporation",
    "ward_count": 100,
    "population": 3073350,
    "helpline_phone": null,
    "centroid_lat": 26.9124,
    "centroid_lon": 75.7873
  },
  {
    "slug": "jdmc-jodhpur",
    "name": "Jodhpur Municipal Corporation",
    "short_name": "JdMC",
    "city": "Jodhpur",
    "state_code": "RJ",
    "municipality_type": "municipal_corporation",
    "ward_count": null,
    "population": 1137000,
    "helpline_phone": null,
    "centroid_lat": 26.2389,
    "centroid_lon": 73.0243
  },
  {
    "slug": "knmc-kota",
    "name": "Kota Municipal Corporation",
    "short_name": "KtMC",
    "city": "Kota",
    "state_code": "RJ",
    "municipality_type": "municipal_corporation",
    "ward_count": null,
    "population": 1001694,
    "helpline_phone": null,
    "centroid_lat": 25.2138,
    "centroid_lon": 75.8648
  },
  {
    "slug": "bkmc-bikaner",
    "name": "Bikaner Municipal Corporation",
    "short_name": "BkMC",
    "city": "Bikaner",
    "state_code": "RJ",
    "municipality_type": "municipal_corporation",
    "ward_count": null,
    "population": 644406,
    "helpline_phone": null,
    "centroid_lat": 28.0229,
    "centroid_lon": 73.3119
  },
  {
    "slug": "admc-ajmer",
    "name": "Ajmer Municipal Corporation",
    "short_name": "AdMC",
    "city": "Ajmer",
    "state_code": "RJ",
    "municipality_type": "municipal_corporation",
    "ward_count": null,
    "population": 542580,
    "helpline_phone": null,
    "centroid_lat": 26.4499,
    "centroid_lon": 74.6399
  },
  {
    "slug": "udmc-udaipur",
    "name": "Udaipur Municipal Corporation",
    "short_name": "UdMC",
    "city": "Udaipur",
    "state_code": "RJ",
    "municipality_type": "municipal_corporation",
    "ward_count": null,
    "population": 474531,
    "helpline_phone": null,
    "centroid_lat": 24.5854,
    "centroid_lon": 73.7125
  },
  {
    "slug": "bmc-bhopal",
    "name": "Bhopal Municipal Corporation",
    "short_name": "BhMC",
    "city": "Bhopal",
    "state_code": "MP",
    "municipality_type": "municipal_corporation",
    "ward_count": 85,
    "population": 1887000,
    "helpline_phone": null,
    "centroid_lat": 23.2599,
    "centroid_lon": 77.4126
  },
  {
    "slug": "imc-indore",
    "name": "Indore Municipal Corporation",
    "short_name": "IMC",
    "city": "Indore",
    "state_code": "MP",
    "municipality_type": "municipal_corporation",
    "ward_count": 85,
    "population": 2170295,
    "helpline_phone": "0731-2434500",
    "centroid_lat": 22.7196,
    "centroid_lon": 75.8577
  },
  {
    "slug": "jmc-jabalpur",
    "name": "Jabalpur Municipal Corporation",
    "short_name": "JbMC",
    "city": "Jabalpur",
    "state_code": "MP",
    "municipality_type": "municipal_corporation",
    "ward_count": null,
    "population": 1267000,
    "helpline_phone": null,
    "centroid_lat": 23.1815,
    "centroid_lon": 79.9864
  },
  {
    "slug": "gmc-gwalior",
    "name": "Gwalior Municipal Corporation",
    "short_name": "GwMC",
    "city": "Gwalior",
    "state_code": "MP",
    "municipality_type": "municipal_corporation",
    "ward_count": null,
    "population": 1053505,
    "helpline_phone": null,
    "centroid_lat": 26.2183,
    "centroid_lon": 78.1828
  },
  {
    "slug": "umc-ujjain",
    "name": "Ujjain Municipal Corporation",
    "short_name": "UjMC",
    "city": "Ujjain",
    "state_code": "MP",
    "municipality_type": "municipal_corporation",
    "ward_count": null,
    "population": 515215,
    "helpline_phone": null,
    "centroid_lat": 23.1765,
    "centroid_lon": 75.7885
  },
  {
    "slug": "pmc-patna",
    "name": "Patna Municipal Corporation",
    "short_name": "PtMC",
    "city": "Patna",
    "state_code": "BR",
    "municipality_type": "municipal_corporation",
    "ward_count": 75,
    "population": 2049000,
    "helpline_phone": null,
    "centroid_lat": 25.6093,
    "centroid_lon": 85.1376
  },
  {
    "slug": "gmc-gaya",
    "name": "Gaya Municipal Corporation",
    "short_name": "GaMC",
    "city": "Gaya",
    "state_code": "BR",
    "municipality_type": "municipal_corporation",
    "ward_count": null,
    "population": 470839,
    "helpline_phone": null,
    "centroid_lat": 24.7914,
    "centroid_lon": 85.0002
  },
  {
    "slug": "bmc-bhagalpur",
    "name": "Bhagalpur Municipal Corporation",
    "short_name": "BgMC",
    "city": "Bhagalpur",
    "state_code": "BR",
    "municipality_type": "municipal_corporation",
    "ward_count": null,
    "population": 400000,
    "helpline_phone": null,
    "centroid_lat": 25.2425,
    "centroid_lon": 86.9842
  },
  {
    "slug": "mmc-muzaffarpur",
    "name": "Muzaffarpur Municipal Corporation",
    "short_name": "MzMC",
    "city": "Muzaffarpur",
    "state_code": "BR",
    "municipality_type": "municipal_corporation",
    "ward_count": null,
    "population": 393724,
    "helpline_phone": null,
    "centroid_lat": 26.1209,
    "centroid_lon": 85.3647
  },
  {
    "slug": "cmc-chandigarh",
    "name": "Chandigarh Municipal Corporation",
    "short_name": "ChMC",
    "city": "Chandigarh",
    "state_code": "CH",
    "municipality_type": "municipal_corporation",
    "ward_count": 35,
    "population": 1055000,
    "helpline_phone": null,
    "centroid_lat": 30.7333,
    "centroid_lon": 76.7794
  },
  {
    "slug": "kcc-kochi",
    "name": "Kochi Municipal Corporation",
    "short_name": "KCC",
    "city": "Kochi",
    "state_code": "KL",
    "municipality_type": "municipal_corporation",
    "ward_count": 74,
    "population": 677381,
    "helpline_phone": null,
    "centroid_lat": 9.9312,
    "centroid_lon": 76.2673
  },
  {
    "slug": "tcc-thiruvananthapuram",
    "name": "Thiruvananthapuram Municipal Corporation",
    "short_name": "TvMC",
    "city": "Thiruvananthapuram",
    "state_code": "KL",
    "municipality_type": "municipal_corporation",
    "ward_count": 100,
    "population": 957730,
    "helpline_phone": null,
    "centroid_lat": 8.5241,
    "centroid_lon": 76.9366
  },
  {
    "slug": "kzc-kozhikode",
    "name": "Kozhikode Municipal Corporation",
    "short_name": "KzMC",
    "city": "Kozhikode",
    "state_code": "KL",
    "municipality_type": "municipal_corporation",
    "ward_count": 75,
    "population": 609224,
    "helpline_phone": null,
    "centroid_lat": 11.2588,
    "centroid_lon": 75.7804
  },
  {
    "slug": "kmc-kollam",
    "name": "Kollam Municipal Corporation",
    "short_name": "KlMC",
    "city": "Kollam",
    "state_code": "KL",
    "municipality_type": "municipal_corporation",
    "ward_count": 55,
    "population": 394163,
    "helpline_phone": null,
    "centroid_lat": 8.8932,
    "centroid_lon": 76.6141
  },
  {
    "slug": "tmc-thrissur",
    "name": "Thrissur Municipal Corporation",
    "short_name": "TsMC",
    "city": "Thrissur",
    "state_code": "KL",
    "municipality_type": "municipal_corporation",
    "ward_count": 55,
    "population": 315957,
    "helpline_phone": null,
    "centroid_lat": 10.5276,
    "centroid_lon": 76.2144
  },
  {
    "slug": "gmc-guwahati",
    "name": "Guwahati Municipal Corporation",
    "short_name": "GwMC",
    "city": "Guwahati",
    "state_code": "AS",
    "municipality_type": "municipal_corporation",
    "ward_count": 60,
    "population": 968549,
    "helpline_phone": null,
    "centroid_lat": 26.1445,
    "centroid_lon": 91.7362
  },
  {
    "slug": "rmc-raipur",
    "name": "Raipur Municipal Corporation",
    "short_name": "RpMC",
    "city": "Raipur",
    "state_code": "CG",
    "municipality_type": "municipal_corporation",
    "ward_count": 70,
    "population": 1010000,
    "helpline_phone": null,
    "centroid_lat": 21.2514,
    "centroid_lon": 81.6296
  },
  {
    "slug": "bmc-bhilai",
    "name": "Bhilai Municipal Corporation",
    "short_name": "BlMC",
    "city": "Bhilai",
    "state_code": "CG",
    "municipality_type": "municipal_corporation",
    "ward_count": 70,
    "population": 625697,
    "helpline_phone": null,
    "centroid_lat": 21.2167,
    "centroid_lon": 81.4333
  },
  {
    "slug": "dmc-durg",
    "name": "Durg Municipal Corporation",
    "short_name": "DuMC",
    "city": "Durg",
    "state_code": "CG",
    "municipality_type": "municipal_corporation",
    "ward_count": null,
    "population": 268679,
    "helpline_phone": null,
    "centroid_lat": 21.1904,
    "centroid_lon": 81.2849
  },
  {
    "slug": "kmc-korba",
    "name": "Korba Municipal Corporation",
    "short_name": "KoMC",
    "city": "Korba",
    "state_code": "CG",
    "municipality_type": "municipal_corporation",
    "ward_count": null,
    "population": 365073,
    "helpline_phone": null,
    "centroid_lat": 22.3595,
    "centroid_lon": 82.7501
  },
  {
    "slug": "bmc-bilaspur",
    "name": "Bilaspur Municipal Corporation",
    "short_name": "BiMC",
    "city": "Bilaspur",
    "state_code": "CG",
    "municipality_type": "municipal_corporation",
    "ward_count": null,
    "population": 363930,
    "helpline_phone": null,
    "centroid_lat": 22.0797,
    "centroid_lon": 82.1409
  },
  {
    "slug": "bmc-bhubaneswar",
    "name": "Bhubaneswar Municipal Corporation",
    "short_name": "BbMC",
    "city": "Bhubaneswar",
    "state_code": "OD",
    "municipality_type": "municipal_corporation",
    "ward_count": 67,
    "population": 837737,
    "helpline_phone": null,
    "centroid_lat": 20.2961,
    "centroid_lon": 85.8245
  },
  {
    "slug": "cmc-cuttack",
    "name": "Cuttack Municipal Corporation",
    "short_name": "CkMC",
    "city": "Cuttack",
    "state_code": "OD",
    "municipality_type": "municipal_corporation",
    "ward_count": 59,
    "population": 606007,
    "helpline_phone": null,
    "centroid_lat": 20.4625,
    "centroid_lon": 85.883
  },
  {
    "slug": "bmc-berhampur",
    "name": "Berhampur Municipal Corporation",
    "short_name": "BrMC",
    "city": "Berhampur",
    "state_code": "OD",
    "municipality_type": "municipal_corporation",
    "ward_count": null,
    "population": 355823,
    "helpline_phone": null,
    "centroid_lat": 19.315,
    "centroid_lon": 84.7941
  },
  {
    "slug": "smc-sambalpur",
    "name": "Sambalpur Municipal Corporation",
    "short_name": "SbMC",
    "city": "Sambalpur",
    "state_code": "OD",
    "municipality_type": "municipal_corporation",
    "ward_count": null,
    "population": 183383,
    "helpline_phone": null,
    "centroid_lat": 21.4669,
    "centroid_lon": 83.9812
  },
  {
    "slug": "rmc-rourkela",
    "name": "Rourkela Municipal Corporation",
    "short_name": "RkMC",
    "city": "Rourkela",
    "state_code": "OD",
    "municipality_type": "municipal_corporation",
    "ward_count": null,
    "population": 272000,
    "helpline_phone": null,
    "centroid_lat": 22.2604,
    "centroid_lon": 84.8536
  },
  {
    "slug": "dmc-dehradun",
    "name": "Dehradun Municipal Corporation",
    "short_name": "DdMC",
    "city": "Dehradun",
    "state_code": "UK",
    "municipality_type": "municipal_corporation",
    "ward_count": 60,
    "population": 803983,
    "helpline_phone": null,
    "centroid_lat": 30.3165,
    "centroid_lon": 78.0322
  },
  {
    "slug": "hmc-haridwar",
    "name": "Haridwar Municipal Corporation",
    "short_name": "HrMC",
    "city": "Haridwar",
    "state_code": "UK",
    "municipality_type": "municipal_corporation",
    "ward_count": null,
    "population": 310000,
    "helpline_phone": null,
    "centroid_lat": 29.9457,
    "centroid_lon": 78.1642
  },
  {
    "slug": "hmc-haldwani",
    "name": "Haldwani Municipal Corporation",
    "short_name": "HdMC",
    "city": "Haldwani",
    "state_code": "UK",
    "municipality_type": "municipal_corporation",
    "ward_count": null,
    "population": 234534,
    "helpline_phone": null,
    "centroid_lat": 29.2183,
    "centroid_lon": 79.513
  },
  {
    "slug": "rmc-ranchi",
    "name": "Ranchi Municipal Corporation",
    "short_name": "RnMC",
    "city": "Ranchi",
    "state_code": "JH",
    "municipality_type": "municipal_corporation",
    "ward_count": 55,
    "population": 1073440,
    "helpline_phone": null,
    "centroid_lat": 23.3441,
    "centroid_lon": 85.3096
  },
  {
    "slug": "jmc-jamshedpur",
    "name": "Jamshedpur Municipal Corporation",
    "short_name": "JsMC",
    "city": "Jamshedpur",
    "state_code": "JH",
    "municipality_type": "municipal_corporation",
    "ward_count": null,
    "population": 629000,
    "helpline_phone": null,
    "centroid_lat": 22.8046,
    "centroid_lon": 86.2029
  },
  {
    "slug": "dmc-dhanbad",
    "name": "Dhanbad Municipal Corporation",
    "short_name": "DbMC",
    "city": "Dhanbad",
    "state_code": "JH",
    "municipality_type": "municipal_corporation",
    "ward_count": null,
    "population": 1162000,
    "helpline_phone": null,
    "centroid_lat": 23.7957,
    "centroid_lon": 86.4304
  },
  {
    "slug": "jmc-jammu",
    "name": "Jammu Municipal Corporation",
    "short_name": "JmMC",
    "city": "Jammu",
    "state_code": "JK",
    "municipality_type": "municipal_corporation",
    "ward_count": 75,
    "population": 657000,
    "helpline_phone": null,
    "centroid_lat": 32.7266,
    "centroid_lon": 74.857
  },
  {
    "slug": "smc-srinagar",
    "name": "Srinagar Municipal Corporation",
    "short_name": "SrMC",
    "city": "Srinagar",
    "state_code": "JK",
    "municipality_type": "municipal_corporation",
    "ward_count": 74,
    "population": 1273312,
    "helpline_phone": null,
    "centroid_lat": 34.0837,
    "centroid_lon": 74.7973
  },
  {
    "slug": "imc-imphal",
    "name": "Imphal Municipal Corporation",
    "short_name": "IpMC",
    "city": "Imphal",
    "state_code": "MN",
    "municipality_type": "municipal_corporation",
    "ward_count": 27,
    "population": 268243,
    "helpline_phone": null,
    "centroid_lat": 24.817,
    "centroid_lon": 93.9368
  },
  {
    "slug": "amc-agartala",
    "name": "Agartala Municipal Corporation",
    "short_name": "AgMC",
    "city": "Agartala",
    "state_code": "TR",
    "municipality_type": "municipal_corporation",
    "ward_count": 35,
    "population": 438408,
    "helpline_phone": null,
    "centroid_lat": 23.8315,
    "centroid_lon": 91.2868
  },
  {
    "slug": "smc-shillong",
    "name": "Shillong Municipal Board",
    "short_name": "SMB",
    "city": "Shillong",
    "state_code": "ML",
    "municipality_type": "municipality",
    "ward_count": 25,
    "population": 354759,
    "helpline_phone": null,
    "centroid_lat": 25.5788,
    "centroid_lon": 91.8933
  },
  {
    "slug": "kmc-kohima",
    "name": "Kohima Municipal Council",
    "short_name": "KhMC",
    "city": "Kohima",
    "state_code": "NL",
    "municipality_type": "municipality",
    "ward_count": null,
    "population": 115283,
    "helpline_phone": null,
    "centroid_lat": 25.6751,
    "centroid_lon": 94.1086
  },
  {
    "slug": "dmc-dimapur",
    "name": "Dimapur Municipal Council",
    "short_name": "DiMC",
    "city": "Dimapur",
    "state_code": "NL",
    "municipality_type": "municipality",
    "ward_count": null,
    "population": 378811,
    "helpline_phone": null,
    "centroid_lat": 25.9049,
    "centroid_lon": 93.7266
  },
  {
    "slug": "imc-itanagar",
    "name": "Itanagar Municipal Corporation",
    "short_name": "ItMC",
    "city": "Itanagar",
    "state_code": "AR",
    "municipality_type": "municipal_corporation",
    "ward_count": null,
    "population": 59490,
    "helpline_phone": null,
    "centroid_lat": 27.0844,
    "centroid_lon": 93.6053
  },
  {
    "slug": "gmc-gangtok",
    "name": "Gangtok Municipal Corporation",
    "short_name": "GtMC",
    "city": "Gangtok",
    "state_code": "SK",
    "municipality_type": "municipal_corporation",
    "ward_count": null,
    "population": 100286,
    "helpline_phone": null,
    "centroid_lat": 27.3389,
    "centroid_lon": 88.6065
  },
  {
    "slug": "amc-aizawl",
    "name": "Aizawl Municipal Corporation",
    "short_name": "AzMC",
    "city": "Aizawl",
    "state_code": "MZ",
    "municipality_type": "municipal_corporation",
    "ward_count": null,
    "population": 293416,
    "helpline_phone": null,
    "centroid_lat": 23.7271,
    "centroid_lon": 92.7176
  },
  {
    "slug": "pnj-panaji",
    "name": "Corporation of the City of Panaji",
    "short_name": "CCP",
    "city": "Panaji",
    "state_code": "GA",
    "municipality_type": "municipal_corporation",
    "ward_count": 30,
    "population": 114405,
    "helpline_phone": null,
    "centroid_lat": 15.4989,
    "centroid_lon": 73.8278
  },
  {
    "slug": "mmc-margao",
    "name": "Margao Municipal Council",
    "short_name": "MMgC",
    "city": "Margao",
    "state_code": "GA",
    "municipality_type": "municipality",
    "ward_count": null,
    "population": 94393,
    "helpline_phone": null,
    "centroid_lat": 15.2832,
    "centroid_lon": 73.9862
  },
  {
    "slug": "vmc-vasco",
    "name": "Vasco da Gama Municipal Council",
    "short_name": "VGM",
    "city": "Vasco da Gama",
    "state_code": "GA",
    "municipality_type": "municipality",
    "ward_count": null,
    "population": 100485,
    "helpline_phone": null,
    "centroid_lat": 15.3982,
    "centroid_lon": 73.8113
  },
  {
    "slug": "smc-shimla",
    "name": "Shimla Municipal Corporation",
    "short_name": "ShMC",
    "city": "Shimla",
    "state_code": "HP",
    "municipality_type": "municipal_corporation",
    "ward_count": 34,
    "population": 169758,
    "helpline_phone": null,
    "centroid_lat": 31.1048,
    "centroid_lon": 77.1734
  },
  {
    "slug": "dmc-dharamshala",
    "name": "Dharamshala Municipal Corporation",
    "short_name": "DhMC",
    "city": "Dharamshala",
    "state_code": "HP",
    "municipality_type": "municipal_corporation",
    "ward_count": null,
    "population": 55368,
    "helpline_phone": null,
    "centroid_lat": 32.219,
    "centroid_lon": 76.3234
  },
  {
    "slug": "jmc-jalandhar",
    "name": "Jalandhar Municipal Corporation",
    "short_name": "JlMC",
    "city": "Jalandhar",
    "state_code": "PB",
    "municipality_type": "municipal_corporation",
    "ward_count": 85,
    "population": 873725,
    "helpline_phone": null,
    "centroid_lat": 31.326,
    "centroid_lon": 75.5762
  },
  {
    "slug": "amc-amritsar",
    "name": "Amritsar Municipal Corporation",
    "short_name": "AmMC",
    "city": "Amritsar",
    "state_code": "PB",
    "municipality_type": "municipal_corporation",
    "ward_count": 85,
    "population": 1132761,
    "helpline_phone": null,
    "centroid_lat": 31.634,
    "centroid_lon": 74.8723
  },
  {
    "slug": "lmc-ludhiana",
    "name": "Ludhiana Municipal Corporation",
    "short_name": "LdMC",
    "city": "Ludhiana",
    "state_code": "PB",
    "municipality_type": "municipal_corporation",
    "ward_count": 95,
    "population": 1618000,
    "helpline_phone": null,
    "centroid_lat": 30.901,
    "centroid_lon": 75.8573
  },
  {
    "slug": "pmc-patiala",
    "name": "Patiala Municipal Corporation",
    "short_name": "PaMC",
    "city": "Patiala",
    "state_code": "PB",
    "municipality_type": "municipal_corporation",
    "ward_count": null,
    "population": 446246,
    "helpline_phone": null,
    "centroid_lat": 30.3398,
    "centroid_lon": 76.3869
  },
  {
    "slug": "bmc-bathinda",
    "name": "Bathinda Municipal Corporation",
    "short_name": "BtMC",
    "city": "Bathinda",
    "state_code": "PB",
    "municipality_type": "municipal_corporation",
    "ward_count": null,
    "population": 285813,
    "helpline_phone": null,
    "centroid_lat": 30.211,
    "centroid_lon": 74.9455
  },
  {
    "slug": "pmc-puducherry",
    "name": "Puducherry Municipality",
    "short_name": "PdMC",
    "city": "Puducherry",
    "state_code": "PY",
    "municipality_type": "municipality",
    "ward_count": 42,
    "population": 244377,
    "helpline_phone": null,
    "centroid_lat": 11.9416,
    "centroid_lon": 79.8083
  },
  {
    "slug": "tcc-thiruvannamalai",
    "name": "Thiruvannamalai Municipality",
    "short_name": "TvM",
    "city": "Thiruvannamalai",
    "state_code": "TN",
    "municipality_type": "municipality",
    "ward_count": null,
    "population": 145000,
    "helpline_phone": null,
    "centroid_lat": 12.2253,
    "centroid_lon": 79.0747
  },
  {
    "slug": "kmc-kumbakonam",
    "name": "Kumbakonam Municipality",
    "short_name": "KbM",
    "city": "Kumbakonam",
    "state_code": "TN",
    "municipality_type": "municipality",
    "ward_count": null,
    "population": 140156,
    "helpline_phone": null,
    "centroid_lat": 10.9617,
    "centroid_lon": 79.3881
  },
  {
    "slug": "hmc-hosur",
    "name": "Hosur Municipality",
    "short_name": "HsM",
    "city": "Hosur",
    "state_code": "TN",
    "municipality_type": "municipality",
    "ward_count": null,
    "population": 116821,
    "helpline_phone": null,
    "centroid_lat": 12.7409,
    "centroid_lon": 77.8253
  },
  {
    "slug": "nmc-noida",
    "name": "Noida Authority",
    "short_name": "NA",
    "city": "Noida",
    "state_code": "UP",
    "municipality_type": "municipal_corporation",
    "ward_count": null,
    "population": 637272,
    "helpline_phone": null,
    "centroid_lat": 28.5355,
    "centroid_lon": 77.391
  },
  {
    "slug": "gnmc-greater-noida",
    "name": "Greater Noida Authority",
    "short_name": "GNIDA",
    "city": "Greater Noida",
    "state_code": "UP",
    "municipality_type": "municipal_corporation",
    "ward_count": null,
    "population": 200000,
    "helpline_phone": null,
    "centroid_lat": 28.4744,
    "centroid_lon": 77.504
  },
  {
    "slug": "jnn-jhansi",
    "name": "Jhansi Nagar Nigam",
    "short_name": "JhNN",
    "city": "Jhansi",
    "state_code": "UP",
    "municipality_type": "municipal_corporation",
    "ward_count": null,
    "population": 505693,
    "helpline_phone": null,
    "centroid_lat": 25.4484,
    "centroid_lon": 78.5685
  },
  {
    "slug": "smcr-silvassa",
    "name": "Silvassa Municipal Council",
    "short_name": "SvMC",
    "city": "Silvassa",
    "state_code": "DN",
    "municipality_type": "municipality",
    "ward_count": null,
    "population": 99016,
    "helpline_phone": null,
    "centroid_lat": 20.2736,
    "centroid_lon": 73.0169
  },
  {
    "slug": "dmc-daman",
    "name": "Daman Municipal Council",
    "short_name": "DmMC",
    "city": "Daman",
    "state_code": "DN",
    "municipality_type": "municipality",
    "ward_count": null,
    "population": 75420,
    "helpline_phone": null,
    "centroid_lat": 20.3974,
    "centroid_lon": 72.8328
  },
  {
    "slug": "pmc-port-blair",
    "name": "Port Blair Municipal Council",
    "short_name": "PBMC",
    "city": "Port Blair",
    "state_code": "AN",
    "municipality_type": "municipality",
    "ward_count": null,
    "population": 108051,
    "helpline_phone": null,
    "centroid_lat": 11.6234,
    "centroid_lon": 92.7265
  },
  {
    "slug": "lmc-leh",
    "name": "Leh Municipal Committee",
    "short_name": "LhMC",
    "city": "Leh",
    "state_code": "LA",
    "municipality_type": "municipality",
    "ward_count": null,
    "population": 47000,
    "helpline_phone": null,
    "centroid_lat": 34.1526,
    "centroid_lon": 77.5771
  },
  {
    "slug": "kmc-kargil",
    "name": "Kargil Municipal Committee",
    "short_name": "KgMC",
    "city": "Kargil",
    "state_code": "LA",
    "municipality_type": "municipality",
    "ward_count": null,
    "population": 16338,
    "helpline_phone": null,
    "centroid_lat": 34.5539,
    "centroid_lon": 76.1349
  }
]